,Site Name,counts,latitude,longitude
0,Seaboard Industrial Blvd. Site,13,33.80833,-84.43167
1,"Colonial Terminals, Plant #1",12,32.09444,-81.11333
2,Robins Air Force Base - NPL Site,12,32.62083,-83.58167
3,Ashland Chemical Company,11,33.905,-84.24278
4,"Coats American, Inc.",11,34.9775,-85.29389
5,TH Agriculture & Nutrition Company - NPL Site,10,31.61722,-84.18167
6,Ruby Quarry Asphalt Plant Site,10,32.92361,-83.49556
7,"Sechem, Inc.",10,33.96972,-84.18306
8,Atlantic Wood Industries (Former),9,32.14583,-81.14917
9,Perma-Fix of South Georgia (fka Chemical Conservation of Georgia),9,30.7975,-83.28083
10,General Electric - Apparatus Service Center,8,33.88611,-84.31389
11,Atlanta Gas Light Company - Savannah MGP Site,8,32.07806,-81.08361
12,Deptford Tract Landfill,8,32.07167,-81.04056
13,Crymes Landfill,8,33.87194,-84.18528
14,Atlanta Gas Light Company - Griffin MGP Site,8,33.24389,-84.26833
15,Square D Company (Former),8,33.79278,-84.43
16,Paper Mill Road Undeveloped Tract,7,33.9525,-83.96278
17,Pilot Wastewater Treatment Plant,7,32.97278,-85.02667
18,15667 Alabama Highway,7,34.76833,-85.15
19,Escambia Treating Company - Brunswick (aka Brunswick Wood NPL Site),7,31.2425,-81.53167
20,Brockway Standard - Homerville Plant,7,31.02917,-82.77361
21,Arivec Chemicals,7,33.76222,-84.73194
22,Atlanta Gas Light Company - Augusta MGP Site,7,33.46778,-81.96972
23,"AMC International, Inc.",7,34.70778,-84.955
24,"Amrep, Inc. - Cartersville (Former)",6,34.155,-84.79167
25,Brown and Brown Wrecker Service,6,33.89833,-84.285
26,CSX Transportation - Savannah (Tremont Road),6,32.06222,-81.14917
27,CSX Transportation - Waycross Facility,6,31.19889,-82.36833
28,"1610 Southland Circle (fka ""Indcon"")",6,33.80167,-84.43333
29,Atlanta Gas Light Company - Waycross MGP Site,6,31.19889,-82.37389
30,Macon MGP Site,6,32.83444,-83.62056
31,Chem-Am,6,33.06,-84.97194
32,Lanier Plaza Shopping Center,5,31.15917,-81.47917
33,"Amrep, Inc. - Marietta",5,33.97583,-84.53944
34,"Chemical Specialists and Development, Inc.",5,33.85194,-84.20278
35,Baxley Creosoting Company,5,31.77472,-82.33639
36,GA Dept of Trans - Dist 4 Main HQ (Former),5,31.51778,-82.85333
37,Escambia Treating Company - Camilla - NPL Site,5,31.22167,-84.20333
38,Central of GA RR/Bernuth-Lembcke Site,5,32.09528,-81.10917
39,304 N Dudley Street Site,5,32.07472,-84.23833
40,Parramore Fertilizer,5,31.44028,-83.5125
41,S&M Scrap Metal Company,5,31.44611,-83.48917
42,Mathis Brothers - South Marbletop Road Landfill - NPL Site,5,34.79722,-85.37778
43,"Apollo Industries, Inc.",5,33.83722,-84.50083
44,Hydro Aluminum,4,31.18,-83.74194
45,Westside Cleaners (former),4,33.935,-84.55667
46,Tropical Breeze Laundry,4,33.70806,-84.45444
47,Dow Chemical - Dalton Site,4,34.63278,-84.92806
48,LCP Chemicals - NPL Site,4,31.18361,-81.51083
49,Barlow Creosote,4,31.05778,-82.6425
50,McCranie Brothers Wood Preserving,4,31.33694,-83.04194
51,Lyndal Chemical (aka Chemical Processing of Georgia),4,34.79556,-84.96556
52,Griffith Oil Company,4,34.06111,-83.54722
53,4th Street Landfill (Brunswick Airport),4,31.18583,-81.47722
54,Wallace Lake Road Dump,4,33.72167,-84.70556
55,Hoxsie's Cleaners (Former),4,32.07167,-84.23222
56,Roswell Station,4,34.00528,-84.39056
57,Rayloc Facility,4,33.77167,-84.52472
58,Legion Industries,4,33.10194,-82.0075
59,"Albany MGP, Former",4,31.58639,-84.14778
60,Atlantic Cotton Mills,4,32.84194,-83.65694
61,"O'Neill Manufacturing, Inc.",4,34.26944,-85.15556
62,"Daniel Measurement and Control, Inc.",4,32.48722,-81.72889
63,Chase Road Property,4,34.51778,-83.51194
64,Unitog Company Facility (Former),3,33.755,-84.55083
65,Manchester Tank Company,3,34.01194,-85.27694
66,"Pennington Seed, Inc. Warehouse (Former)",3,32.21083,-82.39
67,"Coastal Concrete, Inc.",3,32.08194,-81.12778
68,Glennville Wood Preserving,3,31.94667,-81.94806
69,B&L Discount Auto,3,33.69278,-84.26083
70,Marzone/Chevron - NPL Site OU1,3,31.43028,-83.5025
71,Hercules,3,31.16528,-81.47861
72,Southern Wood Piedmont - Augusta,3,33.42556,-81.99972
73,Travis Field/Savannah International Airport,3,32.11611,-81.19056
74,Douglas & Lomason Company,3,33.39167,-84.82278
75,University of Georgia - Milledge Avenue Site,3,33.90583,-83.38528
76,Rabun Apparel (formerly Rabun Mills),3,34.95444,-83.37917
77,Sun Laboratories of Atlanta,3,33.7575,-84.55111
78,"Baychem, Inc.",3,34.04028,-84.61417
79,Brown Steel Contractors - Broad Street Facility,3,33.37333,-84.7975
80,Spears Mattress Company,2,34.23861,-85.17361
81,Roper Pump Company,2,34.21472,-83.4825
82,Rose City Cleaners (Former),2,30.83889,-83.98278
83,Joy Dry Cleaners/Lee's Shopping Center,2,31.82667,-81.61972
84,Shaver's Farm,2,34.79889,-85.3075
85,"Graphic Packaging International, Inc.",2,32.77167,-83.62972
86,Southern Wood Piedmont - Central of Georgia Railroad,2,32.84694,-83.675
87,General Tire - Aldora Plant,2,33.05306,-84.17694
88,Southern Wood Piedmont - East Point,2,33.69,-84.44472
89,Cedartown Municipal Landfill - Former NPL Site,2,34.01472,-85.2875
90,M&J Solvents Company,2,33.795,-84.43806
91,U.S. Army - Fort Benning (FBSB-86),2,32.36389,-84.97972
92,Amoco Fabrics & Fibers - Hazlehurst Mills,2,31.86444,-82.59111
93,So Green Waste Pile,2,31.44222,-83.51056
94,Moultrie Wood Preserving Company,2,31.18139,-83.77194
95,139 Brampton Road,2,32.1075,-81.14472
96,Ben Gober Landfill,2,33.87583,-84.17778
97,"Polychem, LTD",2,34.84361,-84.98028
98,"CPI Plastics, L.L.C.",2,33.34306,-84.79361
99,Douglas & Lomason Company,2,33.58361,-85.09417
100,Celanese Fiber Company,2,34.27222,-85.1675
101,"McKenzie Tank Lines, Inc.",2,32.13778,-81.15278
102,Home Oil,2,31.37778,-84.945
103,Dawson Manufacturing Company,2,31.76667,-84.41944
104,Washington Manufacturing Company,2,32.9425,-82.805
105,"Tronox/Kerr McGee Pigments, Inc. (Former)",2,32.08222,-81.02583
106,Vantran Electric,2,32.99139,-82.38556
107,Southside Cleaners,2,31.97361,-81.13306
108,Estech General Chemicals Albany,2,31.59806,-84.15417
109,"Thomas & Co., Inc.",2,33.26667,-84.25889
110,"Hercules, Inc.",1,32.08806,-81.14778
111,Alternate Energy Resources - NPL Site,1,33.45417,-82.03722
112,"Specialty Stampings, L.L.C.",1,31.14194,-83.42778
113,Busby  Cleaners,1,31.85194,-81.6
114,One-Hour Cleanerizing (assoc. with Peach Orchard NPL),1,33.42389,-82.01889
115,GA DOT Jesup District Office Complex,1,31.595,-81.86778
116,"Polymer Specialties, Inc.",1,34.98111,-85.435
117,"B & M Wood Products, Inc.",1,31.12694,-82.58306
118,Lowe's Home Improvement Warehouse,1,33.55083,-84.41389
119,Jack's Cleaners,1,34.04056,-84.4775
120,Rolling Hills Landfill,1,33.61556,-84.41639
121,Hunter Army Airfield/TCE Plume,1,32.01444,-81.14417
122,Glynco Naval Air Station (Cotton Court Property),1,31.25194,-81.45222
123,Avalon Plant,1,34.50694,-83.21889
124,2217 West Bay Street,1,32.09,-81.125
125,"Rice Iron and Metals, Inc. (Former)",1,30.81889,-83.30528
126,US Cleaners,1,34.06833,-84.52056
127,Milliken & Company,1,34.54639,-83.40139
128,Bradley Circle Properties/Bradley Circle Landfill (Former),1,32.48944,-84.99278
129,G. C. Lee Site / Lee Engr & Const,1,30.98833,-82.89667
130,U.S. Army - Fort Gillem - North Landfill Area,1,33.62917,-84.33333
131,Henkel Site,1,34.01528,-85.26611
132,Turner Air Force Base (Former),1,31.58917,-84.08472
133,Southwire - Wire & Cable Division,1,33.55861,-85.0675
134,Rockbridge Square Shopping Center,1,33.84139,-84.1325
135,Merck & Company,1,31.49722,-84.1325
136,Rummel Fibre Company,1,34.24306,-85.13333
137,Phibro-Tech (fka C P Chemicals),1,33.85306,-84.65056
138,Monroe Auto Equipment Company (Tenneco),1,34.35389,-82.94306
139,York Casket Hardware (fka Piedmont Metals),1,33.96472,-84.00028
140,Union Timber,1,31.02972,-82.76639
141,Signal Energy Holdings (Former Young Refining ),1,33.76306,-84.73111
142,A&D Barrel & Drum Company,1,33.77361,-84.40833
143,Old City Landfill,1,31.89667,-82.58833
144,T Street Dump,1,31.16556,-81.50833
145,Goldberg Brothers,1,33.43861,-81.99389
146,"Loef Company, Inc. (The)",1,33.98167,-83.3425
147,Tift Site,1,33.66694,-84.42583
148,Stephenson Chemical Company,1,33.62917,-84.46917
149,Vulcan Performance Chemicals (Former),1,33.81917,-84.50167
150,ARAMARK Uniform Services,1,30.84889,-83.99167
151,Rental Uniform Service of Griffin,1,33.22528,-84.27917
152,Circle K Store #5259,1,33.96472,-84.41472
153,Hunter Army Airfield - MCA Barracks,1,32.02556,-81.13722
154,"United Technologies Automotive, Inc.",1,33.45028,-82.53889
155,Louisiana Pacific Corp. - Statesboro,1,32.41972,-81.80417
156,"STSE, Inc.",1,31.17472,-81.49111
157,CSXT Depriest Signal Shop,1,32.06833,-81.085
