,Site Name,counts,latitude,longitude
0,"Colonial Terminals, Plant #1",14,32.09444,-81.11333
1,Robins Air Force Base - NPL Site,14,32.62083,-83.58167
2,Seaboard Industrial Blvd. Site,13,33.80833,-84.43167
3,Ashland Chemical Company,12,33.905,-84.24278
4,"Coats American, Inc.",12,34.9775,-85.29389
5,TH Agriculture & Nutrition Company - NPL Site,11,31.61722,-84.18167
6,Atlantic Wood Industries (Former),10,32.14583,-81.14917
7,Atlanta Gas Light Company - Savannah MGP Site,10,32.07806,-81.08361
8,Deptford Tract Landfill,10,32.07167,-81.04056
9,Atlanta Gas Light Company - Griffin MGP Site,10,33.24389,-84.26833
10,Ruby Quarry Asphalt Plant Site,10,32.92361,-83.49556
11,"Sechem, Inc.",10,33.96972,-84.18306
12,Perma-Fix of South Georgia (fka Chemical Conservation of Georgia),9,30.7975,-83.28083
13,Atlanta Gas Light Company - Augusta MGP Site,9,33.46778,-81.96972
14,Pilot Wastewater Treatment Plant,8,32.97278,-85.02667
15,CSX Transportation - Savannah (Tremont Road),8,32.06222,-81.14917
16,Escambia Treating Company - Brunswick (aka Brunswick Wood NPL Site),8,31.2425,-81.53167
17,General Electric - Apparatus Service Center,8,33.88611,-84.31389
18,"1610 Southland Circle (fka ""Indcon"")",8,33.80167,-84.43333
19,Crymes Landfill,8,33.87194,-84.18528
20,Square D Company (Former),8,33.79278,-84.43
21,Paper Mill Road Undeveloped Tract,7,33.9525,-83.96278
22,15667 Alabama Highway,7,34.76833,-85.15
23,GA Dept of Trans - Dist 4 Main HQ (Former),7,31.51778,-82.85333
24,CSX Transportation - Waycross Facility,7,31.19889,-82.36833
25,Brockway Standard - Homerville Plant,7,31.02917,-82.77361
26,Central of GA RR/Bernuth-Lembcke Site,7,32.09528,-81.10917
27,Atlanta Gas Light Company - Waycross MGP Site,7,31.19889,-82.37389
28,Arivec Chemicals,7,33.76222,-84.73194
29,304 N Dudley Street Site,7,32.07472,-84.23833
30,S&M Scrap Metal Company,7,31.44611,-83.48917
31,"AMC International, Inc.",7,34.70778,-84.955
32,Macon MGP Site,7,32.83444,-83.62056
33,"Amrep, Inc. - Cartersville (Former)",6,34.155,-84.79167
34,Brown and Brown Wrecker Service,6,33.89833,-84.285
35,Baxley Creosoting Company,6,31.77472,-82.33639
36,Escambia Treating Company - Camilla - NPL Site,6,31.22167,-84.20333
37,Parramore Fertilizer,6,31.44028,-83.5125
38,4th Street Landfill (Brunswick Airport),6,31.18583,-81.47722
39,Hoxsie's Cleaners (Former),6,32.07167,-84.23222
40,"Albany MGP, Former",6,31.58639,-84.14778
41,Chem-Am,6,33.06,-84.97194
42,"O'Neill Manufacturing, Inc.",5,34.26944,-85.15556
43,Lanier Plaza Shopping Center,5,31.15917,-81.47917
44,"Amrep, Inc. - Marietta",5,33.97583,-84.53944
45,"Chemical Specialists and Development, Inc.",5,33.85194,-84.20278
46,"Coastal Concrete, Inc.",5,32.08194,-81.12778
47,Glennville Wood Preserving,5,31.94667,-81.94806
48,B&L Discount Auto,5,33.69278,-84.26083
49,Dow Chemical - Dalton Site,5,34.63278,-84.92806
50,Barlow Creosote,5,31.05778,-82.6425
51,McCranie Brothers Wood Preserving,5,31.33694,-83.04194
52,"Apollo Industries, Inc.",5,33.83722,-84.50083
53,Hydro Aluminum,4,31.18,-83.74194
54,Westside Cleaners (former),4,33.935,-84.55667
55,U.S. Army - Fort Benning (FBSB-86),4,32.36389,-84.97972
56,So Green Waste Pile,4,31.44222,-83.51056
57,LCP Chemicals - NPL Site,4,31.18361,-81.51083
58,Moultrie Wood Preserving Company,4,31.18139,-83.77194
59,Lyndal Chemical (aka Chemical Processing of Georgia),4,34.79556,-84.96556
60,Griffith Oil Company,4,34.06111,-83.54722
61,Mathis Brothers - South Marbletop Road Landfill - NPL Site,4,34.79722,-85.37778
62,Wallace Lake Road Dump,4,33.72167,-84.70556
63,Celanese Fiber Company,4,34.27222,-85.1675
64,Roswell Station,4,34.00528,-84.39056
65,Rayloc Facility,4,33.77167,-84.52472
66,Legion Industries,4,33.10194,-82.0075
67,Atlantic Cotton Mills,4,32.84194,-83.65694
68,"Daniel Measurement and Control, Inc.",4,32.48722,-81.72889
69,Chase Road Property,4,34.51778,-83.51194
70,"Thomas & Co., Inc.",4,33.26667,-84.25889
71,Unitog Company Facility (Former),3,33.755,-84.55083
72,Manchester Tank Company,3,34.01194,-85.27694
73,"Pennington Seed, Inc. Warehouse (Former)",3,32.21083,-82.39
74,Spears Mattress Company,3,34.23861,-85.17361
75,Tropical Breeze Laundry,3,33.70806,-84.45444
76,G. C. Lee Site / Lee Engr & Const,3,30.98833,-82.89667
77,Southern Wood Piedmont - Central of Georgia Railroad,3,32.84694,-83.675
78,Marzone/Chevron - NPL Site OU1,3,31.43028,-83.5025
79,Hercules,3,31.16528,-81.47861
80,Southern Wood Piedmont - Augusta,3,33.42556,-81.99972
81,Travis Field/Savannah International Airport,3,32.11611,-81.19056
82,Douglas & Lomason Company,3,33.39167,-84.82278
83,University of Georgia - Milledge Avenue Site,3,33.90583,-83.38528
84,Rabun Apparel (formerly Rabun Mills),3,34.95444,-83.37917
85,Sun Laboratories of Atlanta,3,33.7575,-84.55111
86,Brown Steel Contractors - Broad Street Facility,3,33.37333,-84.7975
87,Washington Manufacturing Company,3,32.9425,-82.805
88,Roper Pump Company,2,34.21472,-83.4825
89,2217 West Bay Street,2,32.09,-81.125
90,Joy Dry Cleaners/Lee's Shopping Center,2,31.82667,-81.61972
91,"Graphic Packaging International, Inc.",2,32.77167,-83.62972
92,General Tire - Aldora Plant,2,33.05306,-84.17694
93,Southern Wood Piedmont - East Point,2,33.69,-84.44472
94,Cedartown Municipal Landfill - Former NPL Site,2,34.01472,-85.2875
95,M&J Solvents Company,2,33.795,-84.43806
96,Amoco Fabrics & Fibers - Hazlehurst Mills,2,31.86444,-82.59111
97,139 Brampton Road,2,32.1075,-81.14472
98,Ben Gober Landfill,2,33.87583,-84.17778
99,"Polychem, LTD",2,34.84361,-84.98028
100,"CPI Plastics, L.L.C.",2,33.34306,-84.79361
101,Douglas & Lomason Company,2,33.58361,-85.09417
102,Goldberg Brothers,2,33.43861,-81.99389
103,"McKenzie Tank Lines, Inc.",2,32.13778,-81.15278
104,Home Oil,2,31.37778,-84.945
105,Dawson Manufacturing Company,2,31.76667,-84.41944
106,"Hercules, Inc.",2,32.08806,-81.14778
107,Vantran Electric,2,32.99139,-82.38556
108,Southside Cleaners,2,31.97361,-81.13306
109,Estech General Chemicals Albany,2,31.59806,-84.15417
110,Coastal Plains Treating Company,1,31.43,-83.50389
111,"Tronox/Kerr McGee Pigments, Inc. (Former)",1,32.08222,-81.02583
112,Alternate Energy Resources - NPL Site,1,33.45417,-82.03722
113,"Specialty Stampings, L.L.C.",1,31.14194,-83.42778
114,Busby  Cleaners,1,31.85194,-81.6
115,One-Hour Cleanerizing (assoc. with Peach Orchard NPL),1,33.42389,-82.01889
116,GA DOT Jesup District Office Complex,1,31.595,-81.86778
117,"Polymer Specialties, Inc.",1,34.98111,-85.435
118,"B & M Wood Products, Inc.",1,31.12694,-82.58306
119,Lowe's Home Improvement Warehouse,1,33.55083,-84.41389
120,Jack's Cleaners,1,34.04056,-84.4775
121,Rose City Cleaners (Former),1,30.83889,-83.98278
122,Hunter Army Airfield/TCE Plume,1,32.01444,-81.14417
123,Glynco Naval Air Station (Cotton Court Property),1,31.25194,-81.45222
124,Avalon Plant,1,34.50694,-83.21889
125,"Rice Iron and Metals, Inc. (Former)",1,30.81889,-83.30528
126,US Cleaners,1,34.06833,-84.52056
127,Milliken & Company,1,34.54639,-83.40139
128,Bradley Circle Properties/Bradley Circle Landfill (Former),1,32.48944,-84.99278
129,Shaver's Farm,1,34.79889,-85.3075
130,U.S. Army - Fort Gillem - North Landfill Area,1,33.62917,-84.33333
131,Henkel Site,1,34.01528,-85.26611
132,Turner Air Force Base (Former),1,31.58917,-84.08472
133,Southwire - Wire & Cable Division,1,33.55861,-85.0675
134,Rockbridge Square Shopping Center,1,33.84139,-84.1325
135,Merck & Company,1,31.49722,-84.1325
136,Rummel Fibre Company,1,34.24306,-85.13333
137,Phibro-Tech (fka C P Chemicals),1,33.85306,-84.65056
138,Monroe Auto Equipment Company (Tenneco),1,34.35389,-82.94306
139,York Casket Hardware (fka Piedmont Metals),1,33.96472,-84.00028
140,Union Timber,1,31.02972,-82.76639
141,Signal Energy Holdings (Former Young Refining ),1,33.76306,-84.73111
142,A&D Barrel & Drum Company,1,33.77361,-84.40833
143,Old City Landfill,1,31.89667,-82.58833
144,T Street Dump,1,31.16556,-81.50833
145,"Loef Company, Inc. (The)",1,33.98167,-83.3425
146,Tift Site,1,33.66694,-84.42583
147,Stephenson Chemical Company,1,33.62917,-84.46917
148,Vulcan Performance Chemicals (Former),1,33.81917,-84.50167
149,ARAMARK Uniform Services,1,30.84889,-83.99167
150,Rental Uniform Service of Griffin,1,33.22528,-84.27917
151,"Baychem, Inc.",1,34.04028,-84.61417
152,Circle K Store #5259,1,33.96472,-84.41472
153,Hunter Army Airfield - MCA Barracks,1,32.02556,-81.13722
154,"United Technologies Automotive, Inc.",1,33.45028,-82.53889
155,Louisiana Pacific Corp. - Statesboro,1,32.41972,-81.80417
156,"STSE, Inc.",1,31.17472,-81.49111
157,CSXT Depriest Signal Shop,1,32.06833,-81.085
